$GPVTG,333.05,T,,M,0.02,N,0.04,K,D*38
$GPGGA,163523.000,3847.1993,N,00910.7372,W,2,7,2.13,45.9,M,50.7,M,0000,0000*73
$GPRMC,163523.000,A,3847.1993,N,00910.7372,W,0.02,333.05,050517,,,D*78
$GPVTG,333.05,T,,M,0.02,N,0.04,K,D*38
$GPGGA,163524.000,3847.1993,N,00910.7372,W,2,7,2.13,45.9,M,50.7,M,0000,0000*74
$GPGSA,A,3,25,21,31,29,20,26,18,,,,,,3.33,2.13,2.56*02
$GPGSV,3,1,11,26,68,334,24,21,65,118,39,31,51,192,43,16,41,311,*7B
$GPGSV,3,2,11,36,28,126,38,29,27,053,28,27,26,256,15,20,14,077,23*79
$GPGSV,3,3,11,25,12,110,37,18,07,139,35,23,06,298,*4E
$GPRMC,163524.000,A,3847.1993,N,00910.7372,W,0.01,333.05,050517,,,D*7C
$GPVTG,333.05,T,,M,0.01,N,0.01,K,D*3E
$GPGGA,163525.000,3847.1993,N,00910.7372,W,2,7,2.13,45.9,M,50.7,M,0000,0000*75
$GPRMC,163525.000,A,3847.1993,N,00910.7372,W,0.01,333.05,050517,,,D*7D
$GPVTG,333.05,T,,M,0.01,N,0.03,K,D*3C
$GPGGA,163526.000,3847.1993,N,00910.7372,W,2,7,2.13,45.9,M,50.7,M,0000,0000*76
$GPRMC,163526.000,A,3847.1993,N,00910.7372,W,0.02,333.05,050517,,,D*7D
$GPVTG,333.05,T,,M,0.02,N,0.04,K,D*38
$GPGGA,163527.000,3847.1993,N,00910.7372,W,2,7,2.13,45.9,M,50.7,M,0000,0000*77
$GPRMC,163527.000,A,3847.1993,N,00910.7372,W,0.03,333.05,050517,,,D*7D
$GPVTG,333.05,T,,M,0.03,N,0.05,K,D*38
$GPGGA,163528.000,3847.1993,N,00910.7372,W,2,7,2.13,45.9,M,50.7,M,0000,0000*78
$GPRMC,163528.000,A,3847.1993,N,00910.7372,W,0.02,333.05,050517,,,D*73
$GPVTG,333.05,T,,M,0.02,N,0.03,K,D*3F
$GPGGA,163529.000,3847.1993,N,00910.7372,W,2,7,2.13,45.9,M,50.7,M,0000,0000*79
$GPGSA,A,3,25,21,31,29,20,26,18,,,,,,3.33,2.13,2.56*02
$GPGSV,3,1,11,26,68,334,22,21,65,118,39,31,51,192,43,16,41,311,*7D
$GPGSV,3,2,11,36,28,126,36,29,27,053,30,27,26,256,16,20,14,077,22*7C
$GPGSV,3,3,11,25,12,110,36,18,07,139,35,23,06,298,*4F
$GPRMC,163529.000,A,3847.1993,N,00910.7372,W,0.02,333.05,050517,,,D*72
$GPVTG,333.05,T,,M,0.02,N,0.03,K,D*3F
$GPGGA,163530.000,3847.1993,N,00910.7372,W,2,7,2.13,45.9,M,50.7,M,0000,0000*71
$GPRMC,163530.000,A,3847.1993,N,00910.7372,W,0.01,333.05,050517,,,D*79
$GPVTG,333.05,T,,M,0.01,N,0.01,K,D*3E
$GPGGA,163531.000,3847.1993,N,00910.7372,W,2,7,2.14,45.9,M,50.7,M,0000,0000*77
$GPRMC,163531.000,A,3847.1993,N,00910.7372,W,0.02,333.05,050517,,,D*7B
$GPVTG,333.05,T,,M,0.02,N,0.04,K,D*38
$GPGGA,163532.000,3847.1993,N,00910.7372,W,2,7,2.14,45.9,M,50.7,M,0000,0000*74
$GPRMC,163532.000,A,3847.1993,N,00910.7372,W,0.00,333.05,050517,,,D*7A
$GPVTG,333.05,T,,M,0.00,N,0.00,K,D*3E
$GPGGA,163533.000,3847.1993,N,00910.7372,W,2,7,2.14,45.9,M,50.7,M,0000,0000*75
$GPRMC,163533.000,A,3847.1993,N,00910.7372,W,0.00,333.05,050517,,,D*7B
$GPVTG,333.05,T,,M,0.00,N,0.00,K,D*3E
$GPGGA,163534.000,3847.1993,N,00910.7372,W,2,7,2.13,45.9,M,50.7,M,0000,0000*75
$GPGSA,A,3,25,21,31,29,20,26,18,,,,,,3.33,2.13,2.56*02
$GPGSV,3,1,11,26,68,334,21,21,65,118,39,31,51,192,43,16,41,311,*7E
$GPGSV,3,2,11,36,28,126,37,29,27,053,30,27,26,256,,20,14,077,23*7B
$GPGSV,3,3,11,25,12,110,36,18,07,139,35,23,06,298,*4F
$GPRMC,163534.000,A,3847.1993,N,00910.7372,W,0.02,333.05,050517,,,D*7E
$GPVTG,333.05,T,,M,0.02,N,0.04,K,D*38
$GPGGA,163535.000,3847.1993,N,00910.7372,W,2,7,2.14,45.9,M,50.7,M,0000,0000*73
$GPRMC,163535.000,A,3847.1993,N,00910.7372,W,0.02,333.05,050517,,,D*7F
$GPVTG,333.05,T,,M,0.02,N,0.03,K,D*3F
$GPGGA,163536.000,3847.1993,N,00910.7372,W,2,7,2.14,45.9,M,50.7,M,0000,0000*70
$GPRMC,163536.000,A,3847.1993,N,00910.7372,W,0.01,333.05,050517,,,D*7F
$GPVTG,333.05,T,,M,0.01,N,0.02,K,D*3D
$GPGGA,163537.000,3847.1993,N,00910.7372,W,2,7,2.14,45.9,M,50.7,M,0000,0000*71
$GPRMC,163537.000,A,3847.1993,N,00910.7372,W,0.01,333.05,050517,,,D*7E
$GPVTG,333.05,T,,M,0.01,N,0.01,K,D*3E
$GPGGA,163538.000,3847.1993,N,00910.7372,W,2,7,2.14,45.9,M,50.7,M,0000,0000*7E
$GPRMC,163538.000,A,3847.1993,N,00910.7372,W,0.04,333.05,050517,,,D*74
$GPVTG,333.05,T,,M,0.04,N,0.08,K,D*32
$GPGGA,163539.000,3847.1993,N,00910.7372,W,2,7,2.14,45.9,M,50.7,M,0000,0000*7F
$GPGSA,A,3,25,21,31,29,20,26,18,,,,,,3.34,2.14,2.56*02
$GPGSV,3,1,11,26,68,334,22,21,65,117,39,31,51,192,43,16,41,311,*72
$GPGSV,3,2,11,36,28,126,29,29,27,053,29,27,26,256,20,20,14,077,24*79
$GPGSV,3,3,11,25,12,110,34,18,07,139,34,23,06,298,*4C
$GPRMC,163539.000,A,3847.1993,N,00910.7372,W,0.03,333.05,050517,,,D*72
$GPVTG,333.05,T,,M,0.03,N,0.06,K,D*3B
$GPGGA,163540.000,3847.1993,N,00910.7372,W,2,7,2.14,45.9,M,50.7,M,0000,0000*71
$GPRMC,163540.000,A,3847.1993,N,00910.7372,W,0.07,333.05,050517,,,D*78
$GPVTG,333.05,T,,M,0.07,N,0.14,K,D*3C
$GPGGA,163541.000,3847.1993,N,00910.7372,W,2,7,2.14,45.9,M,50.7,M,0000,0000*70
$GPRMC,163541.000,A,3847.1993,N,00910.7372,W,0.01,333.05,050517,,,D*7F
$GPVTG,333.05,T,,M,0.01,N,0.02,K,D*3D
$GPGGA,163542.000,3847.1993,N,00910.7372,W,2,7,2.14,45.9,M,50.7,M,0000,0000*73
$GPRMC,163542.000,A,3847.1993,N,00910.7372,W,0.02,333.05,050517,,,D*7F
$GPVTG,333.05,T,,M,0.02,N,0.04,K,D*38
$GPGGA,163543.000,3847.1993,N,00910.7372,W,2,6,2.89,45.9,M,50.7,M,0000,0000*77
$GPRMC,163543.000,A,3847.1993,N,00910.7372,W,0.06,333.05,050517,,,D*7A
$GPVTG,333.05,T,,M,0.06,N,0.11,K,D*38
$GPGGA,163544.000,3847.1993,N,00910.7372,W,2,7,2.14,45.9,M,50.7,M,0000,0000*75
$GPGSA,A,3,25,21,31,29,20,26,18,,,,,,3.34,2.14,2.57*03
$GPGSV,3,1,11,26,68,335,19,21,65,117,34,31,51,192,40,16,41,311,*75
$GPGSV,3,2,11,36,28,126,32,29,27,054,28,27,26,256,17,20,14,077,27*72
$GPGSV,3,3,11,25,12,110,36,18,07,139,32,23,06,298,*48
$GPRMC,163544.000,A,3847.1993,N,00910.7372,W,0.06,333.05,050517,,,D*7D
$GPVTG,333.05,T,,M,0.06,N,0.12,K,D*3B
$GPGGA,163545.000,3847.1993,N,00910.7372,W,2,7,2.14,45.9,M,50.7,M,0000,0000*74
$GPRMC,163545.000,A,3847.1993,N,00910.7372,W,0.02,333.05,050517,,,D*78
$GPVTG,333.05,T,,M,0.02,N,0.04,K,D*38
$GPGGA,163546.000,3847.1993,N,00910.7372,W,2,7,2.14,45.8,M,50.7,M,0000,0000*76
$GPRMC,163546.000,A,3847.1993,N,00910.7372,W,0.01,333.05,050517,,,D*78
$GPVTG,333.05,T,,M,0.01,N,0.02,K,D*3D
$GPGGA,163547.000,3847.1993,N,00910.7372,W,2,7,2.14,45.8,M,50.7,M,0000,0000*77
$GPRMC,163547.000,A,3847.1993,N,00910.7372,W,0.01,333.05,050517,,,D*79
$GPVTG,333.05,T,,M,0.01,N,0.02,K,D*3D
$GPGGA,163548.000,3847.1993,N,00910.7372,W,2,7,2.14,45.8,M,50.7,M,0000,0000*78
$GPRMC,163548.000,A,3847.1993,N,00910.7372,W,0.03,333.05,050517,,,D*74
$GPVTG,333.05,T,,M,0.03,N,0.05,K,D*38
$GPGGA,163549.000,3847.1993,N,00910.7372,W,2,8,1.13,45.8,M,50.7,M,0000,0000*72
$GPGSA,A,3,25,21,31,29,20,27,26,18,,,,,1.81,1.13,1.41*0A
$GPGSV,3,1,11,26,68,335,22,21,65,117,34,31,51,191,31,16,41,311,*78
$GPGSV,3,2,11,36,28,126,29,29,27,054,25,27,26,256,17,20,14,077,28*7A
$GPGSV,3,3,11,25,12,110,34,18,07,139,38,23,06,298,*40
$GPRMC,163549.000,A,3847.1993,N,00910.7372,W,0.01,333.05,050517,,,D*77
$GPVTG,333.05,T,,M,0.01,N,0.03,K,D*3C
$GPGGA,163550.000,3847.1993,N,00910.7372,W,2,7,2.14,45.8,M,50.7,M,0000,0000*71
$GPRMC,163550.000,A,3847.1993,N,00910.7372,W,0.03,333.05,050517,,,D*7D
$GPVTG,333.05,T,,M,0.03,N,0.05,K,D*38
$GPGGA,163551.000,3847.1993,N,00910.7372,W,2,6,5.20,45.8,M,50.7,M,0000,0000*71
$GPRMC,163551.000,A,3847.1993,N,00910.7372,W,0.03,333.05,050517,,,D*7C
$GPVTG,333.05,T,,M,0.03,N,0.05,K,D*38
$GPGGA,163552.000,3847.1993,N,00910.7372,W,2,7,2.14,45.8,M,50.7,M,0000,0000*73
$GPRMC,163552.000,A,3847.1993,N,00910.7372,W,0.02,333.05,050517,,,D*7E
$GPVTG,333.05,T,,M,0.02,N,0.04,K,D*38
$GPGGA,163553.000,3847.1993,N,00910.7372,W,2,7,2.14,45.8,M,50.7,M,0000,0000*72
$GPRMC,163553.000,A,3847.1993,N,00910.7372,W,0.00,333.05,050517,,,D*7D
$GPVTG,333.05,T,,M,0.00,N,0.01,K,D*3F
$GPGGA,163554.000,3847.1993,N,00910.7372,W,2,6,1.26,45.8,M,50.7,M,0000,0000*76
$GPGSA,A,3,25,21,31,29,27,18,,,,,,,2.01,1.26,1.57*06
$GPGSV,3,1,11,26,68,335,18,21,65,117,34,31,51,191,39,16,41,311,*79
$GPGSV,3,2,11,36,28,126,30,29,27,054,28,27,26,256,28,20,14,077,17*7F
$GPGSV,3,3,11,25,12,110,36,18,07,139,26,23,06,298,*4D
$GPRMC,163554.000,A,3847.1993,N,00910.7372,W,0.05,333.05,050517,,,D*7F
$GPVTG,333.05,T,,M,0.05,N,0.09,K,D*32
$GPGGA,163555.000,3847.1993,N,00910.7372,W,2,7,2.14,45.8,M,50.7,M,0000,0000*74
$GPRMC,163555.000,A,3847.1993,N,00910.7372,W,0.03,333.05,050517,,,D*78
$GPVTG,333.05,T,,M,0.03,N,0.06,K,D*3B
$GPGGA,163556.000,3847.1993,N,00910.7372,W,2,8,1.06,45.8,M,50.7,M,0000,0000*78
$GPRMC,163556.000,A,3847.1993,N,00910.7372,W,0.00,333.05,050517,,,D*78
$GPVTG,333.05,T,,M,0.00,N,0.00,K,D*3E
$GPGGA,163557.000,3847.1993,N,00910.7372,W,2,8,1.13,45.8,M,50.7,M,0000,0000*7D
$GPRMC,163557.000,A,3847.1993,N,00910.7372,W,0.01,333.05,050517,,,D*78
$GPVTG,333.05,T,,M,0.01,N,0.02,K,D*3D
$GPGGA,163558.000,3847.1993,N,00910.7372,W,2,8,1.13,45.8,M,50.7,M,0000,0000*72
$GPRMC,163558.000,A,3847.1993,N,00910.7372,W,0.00,333.05,050517,,,D*76
$GPVTG,333.05,T,,M,0.00,N,0.01,K,D*3F
$GPGGA,163559.000,3847.1993,N,00910.7372,W,2,8,1.13,45.8,M,50.7,M,0000,0000*73
$GPGSA,A,3,25,21,31,29,20,27,26,18,,,,,1.81,1.13,1.41*0A
$GPGSV,3,1,11,26,68,335,18,21,65,117,15,31,51,191,26,16,41,311,*74
$GPGSV,3,2,11,36,28,126,28,29,27,054,27,27,26,256,16,20,14,077,25*75
$GPGSV,3,3,11,25,12,110,19,18,07,139,26,23,06,298,*40
$GPRMC,163559.000,A,3847.1993,N,00910.7372,W,0.01,333.05,050517,,,D*76
$GPVTG,333.05,T,,M,0.01,N,0.01,K,D*3E
$GPGGA,163600.000,3847.1993,N,00910.7372,W,2,8,1.13,45.8,M,50.7,M,0000,0000*7C
$GPRMC,163600.000,A,3847.1993,N,00910.7372,W,0.01,333.05,050517,,,D*79
$GPVTG,333.05,T,,M,0.01,N,0.03,K,D*3C
$GPGGA,163601.000,3847.1993,N,00910.7372,W,2,8,1.13,45.8,M,50.7,M,0000,0000*7D
$GPRMC,163601.000,A,3847.1993,N,00910.7372,W,0.01,333.05,050517,,,D*78
$GPVTG,333.05,T,,M,0.01,N,0.02,K,D*3D
$GPGGA,163602.000,3847.1993,N,00910.7372,W,2,8,1.13,45.8,M,50.7,M,0000,0000*7E
$GPRMC,163602.000,A,3847.1993,N,00910.7372,W,0.02,333.05,050517,,,D*78
$GPVTG,333.05,T,,M,0.02,N,0.04,K,D*38
$GPGGA,163603.000,3847.1993,N,00910.7372,W,2,8,1.13,45.8,M,50.7,M,0000,0000*7F
$GPRMC,163603.000,A,3847.1993,N,00910.7372,W,0.04,333.05,050517,,,D*7F
$GPVTG,333.05,T,,M,0.04,N,0.08,K,D*32
$GPGGA,163604.000,3847.1993,N,00910.7372,W,2,8,1.13,45.8,M,50.7,M,0000,0000*78
$GPGSA,A,3,25,21,31,29,20,27,26,18,,,,,1.81,1.13,1.42*09
$GPGSV,3,1,11,26,68,335,18,21,65,117,28,31,51,191,33,16,41,311,*7E
$GPGSV,3,2,11,36,28,126,34,29,27,054,25,27,26,256,17,20,14,077,21*7F
$GPGSV,3,3,11,25,12,110,32,18,07,138,29,23,06,298,*47
$GPRMC,163604.000,A,3847.1993,N,00910.7372,W,0.02,333.05,050517,,,D*7E
$GPVTG,333.05,T,,M,0.02,N,0.04,K,D*38
$GPGGA,163605.000,3847.1993,N,00910.7372,W,2,7,2.15,45.8,M,50.7,M,0000,0000*73
$GPRMC,163605.000,A,3847.1993,N,00910.7372,W,0.03,333.05,050517,,,D*7E
$GPVTG,333.05,T,,M,0.03,N,0.06,K,D*3B
$GPGGA,163606.000,3847.1993,N,00910.7372,W,2,7,2.15,45.8,M,50.7,M,0000,0000*70
$GPRMC,163606.000,A,3847.1993,N,00910.7372,W,0.03,333.05,050517,,,D*7D
$GPVTG,333.05,T,,M,0.03,N,0.06,K,D*3B
$GPGGA,163607.000,3847.1993,N,00910.7372,W,2,7,2.15,45.8,M,50.7,M,0000,0000*71
$GPRMC,163607.000,A,3847.1993,N,00910.7372,W,0.08,333.05,050517,,,D*77
$GPVTG,333.05,T,,M,0.08,N,0.15,K,D*32
$GPGGA,163608.000,3847.1993,N,00910.7372,W,2,7,2.15,45.8,M,50.7,M,0000,0000*7E
$GPRMC,163608.000,A,3847.1993,N,00910.7372,W,0.10,333.05,050517,,,D*71
$GPVTG,333.05,T,,M,0.10,N,0.19,K,D*37
$GPGGA,163609.000,3847.1993,N,00910.7373,W,2,7,2.15,45.8,M,50.7,M,0000,0000*7E
$GPGSA,A,3,25,21,31,29,20,26,18,,,,,,3.36,2.15,2.58*0F
$GPGSV,3,1,11,26,68,335,18,21,65,117,38,31,51,191,44,16,41,311,*7F
$GPGSV,3,2,11,36,28,126,30,29,27,054,27,27,26,256,20,20,14,077,24*78
$GPGSV,3,3,11,25,12,110,34,18,07,138,30,23,06,298,*49
$GPRMC,163609.000,A,3847.1993,N,00910.7373,W,0.11,333.05,050517,,,D*70
$GPVTG,333.05,T,,M,0.11,N,0.20,K,D*3C
$GPGGA,163610.000,3847.1993,N,00910.7373,W,2,8,1.13,45.8,M,50.7,M,0000,0000*7C
$GPRMC,163610.000,A,3847.1993,N,00910.7373,W,0.08,333.05,050517,,,D*70
$GPVTG,333.05,T,,M,0.08,N,0.14,K,D*33
$GPGGA,163611.000,3847.1993,N,00910.7373,W,2,8,1.06,45.8,M,50.7,M,0000,0000*79
$GPRMC,163611.000,A,3847.1993,N,00910.7373,W,0.01,333.05,050517,,,D*78
$GPVTG,333.05,T,,M,0.01,N,0.01,K,D*3E
$GPGGA,163612.000,3847.1993,N,00910.7373,W,2,8,1.06,45.8,M,50.7,M,0000,0000*7A
$GPRMC,163612.000,A,3847.1993,N,00910.7373,W,0.02,333.05,050517,,,D*78
$GPVTG,333.05,T,,M,0.02,N,0.03,K,D*3F
